Name;Country;lat;lon;Description
Asian Civilisations Museum; Singapore;1.28744635;103.8514861766425;Museum
National Gallery; Singapore;1.2902557;103.8514709;Museum
Peranakan Museum; Singapore;1.29429255;103.84908938055555;Museum
National Museum; Singapore;1.2965476;103.84831668321195;Museum
National Museums in the North-East Region : Phimai National Museum; Thailand;1.3011676;103.7734711;Museum
Malay Heritage Centre; Singapore;1.30286515;103.859826899204;Monument or Site
Indian Heritage Centre; Singapore;1.3056249;103.8523218052765;Monument or Site
Songkhla Chumphon National Museum; Thailand;10.523689950000001;99.19349259662637;Museum
Kamphaeng Phet Historical Park; Thailand;10.59319;98.89122;Monument or Site
“Arpi” Natural – Historical Reserve; Armenia;12.50409875;-86.66888152230956;Monument or Site
“Arpi” Natural – Historical Reserve; Armenia;12.50409875;-86.66888152230956;Monument or Site
The National Gallery; Thailand;13.704268;100.50206;Monument or Site
Phanom Rung Historical Park; Thailand;13.747391;101.364233;Monument or Site
Bangkok National Museum; Thailand;13.7581806;100.4914810262232;Museum
Bangkok National Museum; Thailand;13.7581806;100.4914810262232;Museum
Bangkok The National Gallery; Thailand;13.759216550000001;100.49396353820475;Monument or Site
National Museum of Royal Barges; Thailand;13.76200145;100.48457076516219;Museum
Phra Nakhon Khiri; Thailand;13.778306;100.5714559;Monument or Site
Chao Samphraya National Museum; Thailand;14.3510945;100.56181123921857;Museum
Phra Nakhon si Ayutthaya (Ayutthaya); Thailand;14.3535427;100.5645684;Monument or Site
Museo ng Tanauan; Philippines;14.604157149999999;121.0313276975708;Museum
Surin National Museum; Thailand;14.848373;103.4737728;Museum
Nakhon Ratchasima; Thailand;14.9747339;102.0981161;Monument or Site
Ubon Ratchathani National Museum; Thailand;15.227656249999999;104.85775275;Museum
Vijayanagara (Hampi) archaeological site; India;15.3294088;76.47553824077656;Monument or Site
Ubon Ratchathani Khon Kaen National Museum; Thailand;15.33187;104.7052;Museum
Si Thep (Petchabun); Thailand;16.418027;101.1556825;Monument or Site
Sukhothai Historical Park (Sukhothai); Thailand;17.010918;99.8203682;Monument or Site
Kamphaeng Phet Historical Park (Kamphaeng Phet) Sri Satchanalaï Historical Park (Sukhothai); Thailand;17.010918;99.8203682;Monument or Site
Historic City of Ayutthaya; Thailand;17.01152605;99.70641261057204;Monument or Site
Ramkhamhaeng National Museum; Thailand;17.01780455;99.70772635196631;Museum
“Garni ” Historical & Archaeological Museum-Reserve Orbeli Brothers House-Museum; Armenia;17.146718;-89.073909;Monument or Site
Inburi National Museum; Thailand;17.31933;99.826777;Museum
Mahaviravong National Museum; Thailand;17.31933;99.826777;Museum
Ratchaburi National Museum; Thailand;17.31933;99.826777;Museum
Ban Chiang National Museum; Thailand;17.40778555;103.23577879358153;Museum
Ban Chiang National Museum; Thailand;17.40778555;103.23577879358153;Museum
Phra Nakhon Khiri (Phetchaburi) Prasat Mueang Sing (Kanchanaburi) Phu Phrabat (Udon Thani); Thailand;17.4082448;102.7868105;Monument or Site
Chiang Mai National Museum; Thailand;18.811606349999998;98.97664270451659;Museum
Chiang Saen National Museum; Thailand;20.2735326;100.0793278;Museum
Kulangsu; China;24.44724635;118.06189137864911;Monument or Site
Castello Historic House; Malta;-26.4005303;146.2405565;Monument or Site
Palace Museum of the Manchurian Regime; China;26.912727;70.913113;Museum
Wada Residence; Japan;27.183;68.6358;Monument or Site
Forum för levande historia/ The Living History Forum ARKDES /Architecture and Design Stadsmuseet/Stockholm City Museum; Sweden;28.425689;-81.212225;Monument or Site
National Museum-Institute of Architecture after Alexander Tamanyan Karen Demirchyan Museum; Armenia;28.628508;77.367978;Museum
Mountain Resort and its Outlying Temples; China;29.8693116;121.5410483;Monument or Site
Water Museum; Portugal;31.89501;54.36867;Monument or Site
Gyumri Museum of National Architecture and Urban Life; Armenia;32.535321;-98.424134;Museum
National Museum of Armenian Etnography and History of Liberal Struggle; Armenia;33.032402;-96.727947;Museum
Kawashima Residence; Japan;33.65885;130.69278;Monument or Site
Gozo Old Prisons; Malta;-33.8196081;150.9375223;Monument or Site
Kumagai Residence; Japan;33.85664;130.86518;Monument or Site
Western Australian Museum; Australia;-33.8743491;151.21325626112178;Museum
Australian Museum; Australia;-33.8743491;151.21325626112178;Museum
“Gladzor University” Historical & Cultural Museum-Reserve; Armenia;34.0023891;71.48342034999999;Monument or Site
(Free admission to permanent exhibition halls and children's museums); Rep. of Korea;-34.041203;18.60216;Museum
Zagreb Museum of contemporary art; Croatia;34.05328815;-118.25062277616152;Museum
Kintaikyo-Bridge; Japan;34.1658089;132.1889474;Monument or Site
The International Center of Photography; United States of America;34.29991;-83.8134;Monument or Site
Yakushiji Temple; Japan;34.66856325;135.7845628312987;Monument or Site
Nakayamadera Temple (Mt. Aoba); Japan;34.8166;135.37401;Monument or Site
Himeji Castle; Japan;34.83943;134.69401;Monument or Site
History SA Adelaide and elsewhere; Australia;-34.997713;138.5217;Monument or Site
Nijo-jo Castle Ninna-ji; Japan;35.01411;135.74759;Monument or Site
Faistos; Greece;35.014550299999996;24.781420092166975;Monument or Site
Zakros); Greece;35.1131194;26.2180027;Monument or Site
Hikone Castle; Japan;35.2771013;136.25172038647025;Monument or Site
Malia; Greece;35.2826677;25.462921;Monument or Site
Minoan Palaces of Crete (Knossos; Greece;35.2985794;25.160038;Monument or Site
National Portrait Gallery; Australia;-35.29986475;149.1338471126316;Monument or Site
National Gallery of Australia; Australia;-35.3008452;149.13668506334574;Monument or Site
Archaeological site and Museum of Akrotiri and ancient Thera; Greece;35.38556285;24.950849282488484;Monument or Site
Archaeological site and Museum of ancient Olympia; Greece;35.38556285;24.950849282488484;Monument or Site
Inuyama Castle; Japan;35.3883304;136.9392776;Monument or Site
Kyoto Prefecture Maizuru Brick Park; Japan;35.4747274;135.3860338;Museum
Ota residence; Japan;35.56126;139.71605;Monument or Site
The National Museum of Western Art; Japan;35.71535;139.77581;Museum
Mnajdra Temples; Malta;35.82694;14.43611;Monument or Site
Ħaġar Qim Temples; Malta;35.827079;14.443548;Monument or Site
Għar Dalam; Malta;35.835976;14.527624;Monument or Site
Tarxien Temples; Malta;35.869170749999995;14.512009016015787;Monument or Site
St. Paul’s Catacombs; Malta;35.8807021;14.39766453463033;
Malta Maritime Museum; Malta;35.893381250000004;14.416136908167307;Museum
National Museum of Archaeology; Malta;35.89753785;14.511195235436473;Museum
Gozo Museum of Archaeology; Malta;35.89753785;14.511195235436473;Museum
The Palace State Rooms; Malta;35.8986475;14.5140093;Monument or Site
Domvs Romana; Malta;35.8996771;14.512434;Monument or Site
Fort St Elmo; Malta;35.90194;14.5183;Monument or Site
National War Museum; Malta;35.9019705;14.5187411;Museum
Fort St Angelo; Malta;35.902455;14.518506;Monument or Site
Borġ in-Nadur; Malta;35.910153;14.468936;Monument or Site
Ta’ Bistra; Malta;35.91639;14.41583;Monument or Site
The Inquisitor’s Palace; Malta;35.91781;14.49891;Monument or Site
Skorba; Malta;35.9210207;14.378576454996669;Monument or Site
Gozo Nature Museum; Malta;36.0465993;14.2390435;Museum
Ġgantija Temples; Malta;36.047227;14.26906258371655;Monument or Site
Ta’ Kola Windmill; Malta;36.049813799999995;14.266793750000001;Monument or Site
Tomioka Silk Mill; Japan;36.25543855;138.88764225729295;Monument or Site
The Royal Castle; Poland;36.7665687;31.3863194;Monument or Site
Topkapi palace; Türkiye;36.85536;30.85369;Monument or Site
Ancient Corinth; Greece;37.931961099999995;22.89194475932289;Monument or Site
National Archaeological Museum of Athens; Greece;37.9890123;23.73295773748378;Museum
Powerhouse Museum Science + Design; Australia;-38.3537687;141.6029386;Museum
Karlovac City Museum; Croatia;38.633700649999994;-90.20041419716557;Museum
Gulbenkian Museum; Portugal;38.737822800000004;-9.153514862955836;Museum
La Alhambra; Spain;38.7961681;-5.5676261;Monument or Site
Mdina National Museum of Natural History; Malta;38.891245;-77.02597012430643;Museum
Cathédrale de Besançon and its horloge astronomique; France;38.963459;-95.23616;Monument or Site
Chuson-ji Temple; Japan;39.00094095;141.10206992650058;Monument or Site
Goris Museum of Regional Studies Khndzoresk History Museum; Armenia;39.1997664;46.4183092;Museum
Yeghegnadzor Museum of Regional Studies; Armenia;39.1997664;46.4183092;Museum
Syunik Region; Armenia;39.20162;46.47158;Museum
Near East Art Museum; Armenia;39.325288;-76.619107;Museum
Vayots Dzor  Region; Armenia;39.739472;45.448387;Museum
Cafesjian Museum Foundation; Armenia;39.910895;-75.22660436217873;Monument or Site
Cafesjian Museum Foundation; Armenia;39.910895;-75.22660436217873;Monument or Site
Palace Museum (Beijing); China;39.91672;116.39078;Museum
Shanhaiguan Great Wall Jinshanling Great Wall; China;40.0025;119.74889;Monument or Site
Palacio real de Aranjuez; Spain;40.03633615;-3.6082618378865536;Monument or Site
“Erebuni” Historical & Archaeological Museum-Reserve; Armenia;40.127061;44.18613;Monument or Site
“Erebuni” Historical & Archaeological Museum-Reserve Yerevan History Museum; Armenia;40.127061;44.18613;Monument or Site
Komitas Museum-Institute; Armenia;40.16239;44.50239;Museum
History Museum of Armenia; Armenia;40.17869;44.51399;Museum
History Museum of Armenia National Gallery of Armenia; Armenia;40.17869;44.51399;Museum
Yerevan Region; Armenia;40.185693;44.520721;Museum
Martiros Sarian House-Museum; Armenia;40.18686;44.50929;Museum
Martiros Sarian House-Museum Sergey Parajanov Museum; Armenia;40.18686;44.50929;Museum
Matenadaran Research Institute of Ancien manuscripts after M.Mashtots; Armenia;40.199945;44.491281;Museum
Gegharkunik Region; Armenia;40.25568;45.14728;Museum
Perch Proshyan House-Museum; Armenia;40.298985349999995;44.365068073358216;Monument or Site
Itsukushima Shrine; Japan;40.53851;141.55761;Monument or Site
San Lorenzo del Escorial; Spain;40.5894405;-4.149149713167988;Monument or Site
Metropolitan Museum of Art; United States of America;40.77955;-73.96292;Museum
Lori Region; Armenia;40.8104975;44.484771150000014;Museum
Shirak Region; Armenia;40.84042;43.91582;Museum
The Cloisters Museum; United States of America;40.86529;-73.931025;Museum
Chengde; China;40.9507147;117.9567031;Monument or Site
Hovhannes Tumanyan House-Museum; Armenia;40.9633778;44.6475725;Monument or Site
Hagia Sophia; Türkiye;41.0086;28.98;Monument or Site
Gegharkunik Museum of Local Lore; Armenia;41.0121306;-74.12308729363716;Museum
Casa Batlló; Spain;41.3915446;2.1646961326302048;Monument or Site
La Pedrera/Casa Milà; Spain;41.39539955;2.161762102712899;Monument or Site
Sant Pau Recinte Modernista; Spain;41.41266535;2.174335853538536;Monument or Site
Guimarães castle; Portugal;41.432173;-8.308575;Monument or Site
Historic New Harmony; United States of America;41.6535593;-72.1131273;Monument or Site
Georgian National Museum; Georgia;41.6960428;44.8002209;Museum
Centrale Montemartini; Italy;41.8665472;12.478014964961964;Monument or Site
Zagreb Museum of primitive art; Croatia;41.897452;-87.829224;Museum
San Carlo alle Quattro Fontane; Italy;41.901737999999995;12.490797686486488;Monument or Site
Vatican Museo; Italy;41.90268;12.45414;Museum
Galleria Nazionale d'Arte Moderna; Italy;41.903874;12.4858033;Monument or Site
Galleria Borghese; Italy;41.9172605;12.4931624;Monument or Site
Musée de la Maison Bonaparte; France;41.917936850000004;8.738636376803605;Museum
“Goshavank” Historical & Architectural Museum-Reserve; Armenia;41.96684495;44.20767059704605;Monument or Site
“Goshavank” Historical & Architectural Museum-Reserve; Armenia;41.96684495;44.20767059704605;Monument or Site
“Zvartnots” Historical & Cultural Museum-Reserve “Metsamor ” Historical- Archaeological Museum-Reserve; Armenia;41.96684495;44.20767059704605;Monument or Site
Palau Güell; Spain;42.1734468;2.9646635;Monument or Site
Archaeological site and Museum of Delos; Greece;42.30606915;-82.22024379524599;Museum
Archaeological site and Museum of Dion; Greece;42.30606915;-82.22024379524599;Museum
Archaeological site and Museum of Delphi; Greece;42.30606915;-82.22024379524599;Monument or Site
Archaeological site and Museum of Epidavros; Greece;42.30606915;-82.22024379524599;Monument or Site
Archaeological site and Museum of Mycenae and Tiryns; Greece;42.30606915;-82.22024379524599;Monument or Site
Museum of Fine Arts; United States of America;42.337918;-71.09502;Museum
Isabella Stewart Gardner Museum; United States of America;42.33824495;-71.09915382373549;Museum
Peabody Essex Museum; United States of America;42.52159245;-70.89219314752947;Museum
Forteresse de Salses; France;42.839091;2.91871;Monument or Site
Ta’ Ħaġrat; Malta;42.97119;-73.79262;Monument or Site
Museo Civico di Siena; Italy;42.9900779;11.8704524;Museum
Domaine national du Palais-Royal; France;43.0024;1.13815;Monument or Site
Monastère de Saorge; France;43.05068;-0.6022078499999991;Monument or Site
Zagreb Archaeological Museum Narona; Croatia;43.0804139;17.6258524;Museum
Fort de Brégançon; France;43.092811999999995;6.321843250680676;Monument or Site
Cloître de la cathédrale de Fréjus; France;43.1216875;5.934033526880076;Monument or Site
Port Arthur Historic Sites; Australia;-43.147805;147.850682;Monument or Site
Site archéologique de Montmaurin; France;43.224;0.636882;Monument or Site
Château d'If; France;43.27985595;5.3252840193832025;Monument or Site
Musée national du château de Pau; France;43.2946737;-0.3752527;Museum
Site archéologique d'Ensérune ; France;43.3097644;3.1108183221632655;Monument or Site
Abbaye du Thoronet; France;43.460545749999994;6.263664665483828;Monument or Site
Split Archaeological Museum; Croatia;43.51591;16.43515;Museum
Zadar Archaeological Museum; Croatia;43.51591;16.43515;Museum
Musée national Picasso La Guerre et La Paix; France;43.580067;7.053305;Museum
St. Mathias Church Buda Castle; Hungary;43.64781745;-79.4111569298137;Monument or Site
Villa Kérylos; France;43.703305799999995;7.333806951695893;Monument or Site
Abbaye de Montmajour; France;43.7059437;4.6642559;Monument or Site
Trophée d'Auguste; France;43.7447948;7.401755915144534;Monument or Site
Pitti Palace; Italy;43.76554204999999;11.249841376036732;Monument or Site
Uffizi Gallery; Italy;43.76773;11.25649;Museum
Site archéologique de Glanum; France;43.77353765;4.832371090787859;Monument or Site
Castellvechio Museo; Italy;43.7913576;12.1548384;Museum
Château de Rambouillet (Laiterie de la Reine et Chaumière aux Coquillages); France;43.91758;2.958069;Monument or Site
Château de Gramont; France;43.937206950000004;0.7663358111855518;Monument or Site
Hôtel de Sade; France;43.947650949999996;4.8053747063972745;Monument or Site
Tour Pey-Berland; France;43.9974551;5.0595701;Monument or Site
Arc de triomphe; France;44.142174600000004;4.804810889507216;Monument or Site
Musée de la musique (Cité de la musique); France;44.1449749;0.3714363;Museum
Abbaye de Beaulieu-en-Rouergue ; France;44.209798;1.854139;Monument or Site
The Vasa Museum; Sweden;44.5039166;-92.7229786;Monument or Site
Château de Cadillac; France;44.6379821;-0.32058217387635507;Monument or Site
Place-forte de Mont-Dauphin; France;44.672242;6.62622;Monument or Site
Château d'Assier; France;44.6749042;1.8787484;Monument or Site
Tours de la cathédrale Notre-Dame; France;44.760321;1.097084;Monument or Site
Abbaye de La Sauve-Majeure; France;44.7683662;-0.3119155;Monument or Site
Église Saint-Pierre-ès-Liens de Montcaret; France;44.85836345;0.06412490938967107;Monument or Site
Villa gallo-romaine de Montcaret; France;44.85838645;0.06364682959782977;Monument or Site
Château de Castelnau-Bretenoux; France;44.89913275;1.825896467886777;Monument or Site
Musée Eugène-Delacroix; France;44.931416;2.446506;Museum
Musée national de Préhistoire  Les-Eyzies-de-Tayac ; France;44.9362525;1.0135749;Museum
Sites préhistoriques de la vallée de la Vézère; France;44.9517985;0.9379753;Monument or Site
Petit Palais; France;44.9809417;-0.0630624;Monument or Site
Cloître de la cathédrale Notre-Dame du Puy-en-Velay Château de Voltaire; France;45.045263;3.881195;Monument or Site
Fort Saint-André; France;45.2031276;6.649859103272353;Monument or Site
Monticello; United States of America;45.3053901;-93.7939996;Monument or Site
Musée Jacquemart-André; France;45.3933564;5.2612214;Museum
Château de Puyguilhem; France;45.42599285;0.7442849010015118;Monument or Site
National Gallery of Armenia; Armenia;45.429526300000006;-75.69881245158095;Monument or Site
Musée des Beaux-Arts du Canada à Ottawa; Canada;45.429526300000006;-75.69881245158095;Museum
Punta della Dogana; Italy;45.430739900000006;12.336286970718438;Monument or Site
Peggy Guggenheim Collection; Italy;45.4307957;12.3316929;Museum
Palazzo Grassi; Italy;45.433782449999995;12.327952565722182;Monument or Site
Museo di Palazzo Vecchio; Italy;45.4399535;10.987865;Museum
Grotte de Pair-non-Pair; France;45.4425621;0.785301;Monument or Site
Château de Villeneuve-Lembron; France;45.47805255;3.1860138985880067;Monument or Site
Musée des Beaux-Arts de Montréal; Canada;45.4986971;-73.5793846;Museum
Teatro Olimpico di Vicenza; Italy;45.55015425;11.54925067718815;Monument or Site
Sainte-Chapelle; France;45.788583349999996;6.713597499999997;Monument or Site
Sainte-Chapelle; France;45.788583349999996;6.713597499999997;Monument or Site
Zagreb Technical Museum Nikola Tesla; Croatia;45.816162;15.975696;Museum
Musée national napoléonien ile d'aix; France;46.0121794;-1.1737893;Museum
Musée des Deux Victoires Clemenceau-De Lattre; France;46.049148;4.070551;Museum
Abbaye de Charroux; France;46.1434776;0.40443214593039506;Monument or Site
tour Saint-Nicolas la rochelle; France;46.155768;-1.1533148255345547;Monument or Site
Tour de la Lanterne La rochelle; France;46.1557862;-1.1571226068421052;Monument or Site
tour de la Chaîne la rochelle; France;46.15581055;-1.154185372452229;Monument or Site
Ferney-Voltaire; France;46.2567057;6.1096409;Monument or Site
Château d'Aulteribe Château de Chareil-Cintrat; France;46.2610209;3.231769;Monument or Site
Musée du Moyen Age - Cluny; France;46.4339446;4.6576358;Museum
Abbaye de Cluny; France;46.434715;4.6585294;Monument or Site
Site gallo-romain de Sanxay; France;46.49743545;-0.023686610641780324;Monument or Site
Domaine de George Sand; France;46.62457805;1.9762890124047277;Monument or Site
Musée national des Beaux-Arts de Québec; Canada;46.7996302;-71.2243748;Museum
Musée de la civilisation de Québec; Canada;46.8151739;-71.2023007;Museum
Nice Musée national Fernand Léger; France;46.93271352475404;4.059312867613327;Museum
Château d'Oiron; France;46.952003000000005;-0.07697179992421763;Monument or Site
National Museum of Fine Arts; Moldova;47.0218411;28.829613277664148;Museum
National Museum of History; Moldova;47.022654450000005;28.827976861887702;Museum
National Museum of Ethnography and Natural History; Moldova;47.0234934;28.820783726020245;Museum
Château de Bouges; France;47.0423909;1.6729627512338001;Monument or Site
cathédrale Saint-Étienne de Bourges; France;47.08223275;2.3991787559496824;Monument or Site
Palais Jacques-Cœur; France;47.084156;2.393565;Monument or Site
Hôtel de la Marine; France;47.211806;-1.575841;Monument or Site
Château d'Azay-le-Rideau; France;47.25904985;0.465756301165524;Monument or Site
Château de Montal; France;47.282322;4.018746;Monument or Site
Musée Magnin; France;47.320949;5.042228;Museum
Cloître de la Psalette; France;47.3958664;0.6940454493563322;Monument or Site
Lichtenstein Palace; Austria;47.40524365;15.272935143786803;Monument or Site
Château de Fougères-sur-Bièvre; France;47.447663399999996;1.3439683550638857;Monument or Site
Château d'Angers; France;47.4687699;-0.5593237;Monument or Site
Tours et crypte de la cathédrale Notre-Dame de Paris; France;47.496067;-1.421816;Monument or Site
Kunsthalle; Hungary;47.51391425;19.07890298367445;Monument or Site
Château de Bussy-Rabutin; France;47.5614039;4.5235026;Monument or Site
Site des mégatithes de Locmariaquer; France;47.5717694;-2.9512493;Monument or Site
château d’Ecouen; France;47.586417;0.902073;Monument or Site
Château de Talcy; France;47.769422;1.4445631;Monument or Site
Magny-les-Hameaux Musées et domaine nationaux du Palais impérial de Compiègne Musée de la coopération franco-américaine; France;47.777022;0.892048;Museum
Tour et remparts d'Aigues-Mortes; France;47.8398381;-0.33635973214285736;Monument or Site
Maison de Georges Clemenceau; France;47.9933416;0.1769386970555774;Monument or Site
Conciergerie; France;48.034048;3.9132176;Monument or Site
Château de Châteaudun; France;48.0707482;1.3233275682327954;Monument or Site
Munchen Deutsches Museum; Germany;48.1300409;11.582908990594504;Museum
All DGPC Monuments and Museums All EGEAC Monuments and Museums Côa Parque; Portugal;48.148763;14.01793;Monument or Site
Fondation Louis Vuitton Palais de la découverte; France;48.171546;7.198943;Museum
Château de Fontainebleau; France;48.402116649999996;2.6998510246573746;Monument or Site
Maison d'Ernest Renan; France;48.43306115;-4.623238193755242;Monument or Site
Sites mégalithiques de Carnac Cairn de Barnenez; France;48.4538912;2.1996515396592553;Monument or Site
Château de La Motte-Tilly; France;48.46714875;3.4314546318272585;Monument or Site
Château de Carrouges; France;48.5608248;-0.15263616003611014;Monument or Site
Motsuji Temple ; Japan;48.600375;2.578578;Monument or Site
Château et remparts de la cité de Carcassonne; France;48.623577;2.270764;Monument or Site
Abbaye du Mont-Saint-Michel; France;48.6360234;-1.511480984960727;Monument or Site
Domaine des Granges de Port Royal; France;48.747345;2.019369;Museum
cathédrale de Chartres; France;48.77677;1.9613627;Monument or Site
Tréguier; France;48.784201;-3.2319779;Monument or Site
Château de Versailles; France;48.804425249999994;2.120285270992599;Monument or Site
Monastère royal de Brou; France;48.8255559;2.1826083;Monument or Site
Maison des Jardies; France;48.827119999999994;2.198741505565093;Monument or Site
Les Catacombes; France;48.8337437;2.3322959;Monument or Site
Domaine national de Saint-Cloud; France;48.833749600000004;2.1964653653893036;Monument or Site
Fondation Cartier pour l'art contemporain; France;48.83736825;2.331912990682282;Museum
Domaine national de Jossigny; France;48.8386762;2.7531163;Monument or Site
Château de Vincennes; France;48.8429069;2.4358057877896617;Monument or Site
Panthéon; France;48.8469927;2.3465071;Monument or Site
Panthéon; France;48.8469927;2.3465071;Monument or Site
Musée de Cluny - Musée national du Moyen Âge; France;48.85064945;2.3435643010185183;Museum
Château de Champs-sur-Marne ; France;48.8523928;2.6044908;Monument or Site
Colonne de Juillet; France;48.853171149999994;2.369138739583333;Monument or Site
Musée national Marc Chagall; France;48.85464155;2.335393670592886;Museum
Musée Maillol; France;48.8547304;2.3248616;Museum
Musée Rodin; France;48.85474735;2.3158669998625365;Museum
Hôtel de Béthune-Sully; France;48.8562361;2.3665962645308722;Monument or Site
Musée des Plans-reliefs; France;48.8564589;2.3132374;Monument or Site
Musée des Arts Décoratifsusée des Arts Décoratifs Musée Nissim de Camondo; France;48.858458;2.337574;Museum
Centre Pompidou; France;48.860591799999995;2.3524736024856843;Monument or Site
Musée du Louvre; France;48.8611473;2.33802768704666;Museum
Musée d'Orsay; France;48.861234;2.323764;Museum
Cité de l'Architecture et du Patrimoine; France;48.8628901;2.288981;Monument or Site
Musée de l'Orangerie; France;48.8637655;2.322660207806927;Museum
Musée Picasso; France;48.86426;2.3612;Museum
Musée des Arts asiatiques-Guimet; France;48.86512;2.29376;Museum
Musées des châteaux de Malmaison et de Bois-Préau; France;48.865815;2.176077;Museum
Grand Palais; France;48.86616135;2.3122229353846153;Monument or Site
Chapelle expiatoire; France;48.87369815;2.3227584064109164;Monument or Site
Arc de triomphe de l'Étoile; France;48.8737791;2.295037226037673;Monument or Site
Musée d’archéologie nationale; France;48.897896;2.095621;Museum
château de Saint-Germain-en-Laye; France;48.897904499999996;2.09560349002016;Monument or Site
Basilique cathédrale de Saint-Denis; France;48.935773;2.3580232;Monument or Site
Château de Maisons-Laffitte; France;48.9472262;2.153903669969626;Monument or Site
Village de Giverny; France;49.0769091;1.5297337950055376;Monument or Site
National Gallery; Czech Republic;49.18720315;16.61618214998997;Museum
Abbaye du Bec-Hellouin; France;49.227716799999996;0.7215579305023938;Monument or Site
Palais du Tau; France;49.25326235;4.034537210053816;Monument or Site
cathédrale de Reims; France;49.2535616;4.033298;Monument or Site
Musée de la Tapisserie de Bayeux; France;49.2744127;-0.6999384;Museum
Paris Musée national de la Renaissance; France;49.27759;1.776486;Museum
Villa Savoye; France;49.29381;3.64118;Monument or Site
Château de Pierrefonds; France;49.304416;2.819644;Monument or Site
Ruben Sevak Museum at the Mother See Holy of Etchmiadzin; Armenia;49.388951;-119.921214;Museum
Musée du Quai Branly; France;49.4403166;1.1397405;Museum
Blérancourt; France;49.5171443;3.1517532;Monument or Site
Château de Coucy; France;49.5218263;3.3185631651794254;Monument or Site
Fondation Le Corbusier (Maison La Roche and Le Corbusier's Apartment-studio); France;49.577593;-1.30295;Museum
cathédrale d'Amiens; France;49.894622;2.3020286071428666;Monument or Site
Spanish Synagogue; Czech Republic;50.0903589;14.420847326686296;Monument or Site
Villa Cavrois; France;50.670378;3.155395;Monument or Site
Colonne de la Grande Armée Wimille; France;50.74126135;1.6174436736237119;Monument or Site
Pillnitz palace; Germany;51.00876375;13.868871661951381;Monument or Site
Zagreb Museum of Arts and Crafts; Croatia;51.012424;-0.928498;Museum
Prachinburi National Maritime Museum; Thailand;51.48077585;-0.005122450776572108;Museum
Tate Britain; United Kingdom;51.4911182;-0.12781878350367853;Monument or Site
Royal Academy of Arts; United Kingdom;51.5092768;-0.13973813543557267;Monument or Site
The Palace Armoury; Malta;51.510363;4.289304;Monument or Site
Historical & Cultural Preservation of “Lori Berd”; Armenia;51.605198;-3.3386660499999996;Museum
“Zorac Qarer” Historical & Cultural Reserve; Armenia;51.605198;-3.3386660499999996;Monument or Site
“Zorac Qarer” Historical & Cultural Reserve; Armenia;51.605198;-3.3386660499999996;Monument or Site
The Johnston Collection; Australia;51.753407;-4.997452;Monument or Site
Iwami Ginzan World Heritage Center Iwami Ginzan Silver Mine Museum; Japan;51.77308455;-3.087570210987924;Museum
British Museum; United Kingdom;51.9462814;-0.2757955;Museum
Nin Museum of Antiquities; Croatia;52.1306261;-106.6327705;Museum
Anne Frank House; Netherlands;52.3455675;4.9002337;Monument or Site
Van Gogh Museum; Netherlands;52.35836725;4.88108997215221;Museum
Rijksmuseum Amsterdam; Netherlands;52.3598431;4.8850394507194235;Museum
Museum Het Schip (Amsterdamse School); Netherlands;52.3904885;4.8737264;Museum
Palaces and Parks of Potsdam; Germany;52.4047203;13.0834523;Monument or Site
Bauhaus Archiv; Germany;52.5062015;13.35301526250954;Museum
Mir Castle; Belarus;53.451196949999996;26.473281674676514;Monument or Site
Imperial War Museums; United Kingdom;53.468622;-2.296864;Museum
Gokayama Folk Museum; Japan;54.072080799999995;-1.997321400374891;Museum
National Gallery; Lithuania;54.6854603;25.2759272;Museum
Royal Elephant National Museum; Thailand;54.690607;-1.207205;Museum
Royal Elephant National Museum; Thailand;54.690607;-1.207205;Museum
The bastion of Vilnius (Barbican); Lithuania;54.734317;25.336654;Monument or Site
Mark Rothko Museum; Latvia;55.8838439;26.4974499;Museum
Beleura House & Garden; Australia;56.655247;-111.324534;Monument or Site
The National Gallery; United Kingdom;56.7814293;-2.53678;Monument or Site
"Centre of Technology and Industrial Design ""Engineering Arsenal"" Art Museums of Latvia"; Latvia;56.9521213;24.079025751808224;Museum
Skara Jönköpings läns museum; Sweden;57.7801989;14.1759104;Museum
Jönköping; Sweden;57.7825634;14.165719;Monument or Site
Mikkel Museum; Estonia;58.6634535;25.256125663450465;Museum
Sörmlands County museum; Sweden;58.74588275;17.01389743818747;Monument or Site
Haapsalu Old Town Hall; Estonia;58.936616;23.54165;Monument or Site
Haapsalu Castle; Estonia;58.9470189;23.5394733;Monument or Site
Ants Laikmaa Museum; Estonia;58.9494231;23.6816056;Museum
Iisaku Parish Museum; Estonia;59.10139;27.30806;Museum
Nationalmuseum/ The National Museum - (Museum of art and design); Sweden;59.3196224;18.0704322;Monument or Site
Moderna museet / Modern Art Museum; Sweden;59.3263494;18.0840004;Monument or Site
Livrustkammaren/ Royal Armoury; Sweden;59.326615;18.073078;Monument or Site
Stiftelsen Nordiska museet; Sweden;59.3291464;18.093890016427466;Monument or Site
Kadriorg Art Museum; Estonia;59.348709;26.360551;Museum
Estonian Museum of Applied Art and Design; Estonia;59.36679;24.876858;Museum
Narva Museum; Estonia;59.3754284;28.2013775;Museum
Vabamu Museum of Occupations and Freedom; Estonia;59.3799414;24.6981871;Museum
Niguliste Museum; Estonia;59.435836;24.742838;Museum
Adamson-Eric Museum; Estonia;59.4363023;24.7417538;Museum
KUMU Art Museum; Estonia;59.4365904;24.754684;Museum
Museum of Estonian Architecture; Estonia;59.4403582;24.7562515;Museum
Ilons Wonderland; Estonia;59.441593;24.750104;Museum
Västerås; Sweden;59.6110992;16.5463679;Monument or Site
Västerås konstmuseum; Sweden;59.630135;16.550459;Monument or Site
Satun National Museum; Thailand;6.6175651;100.0661803;Museum
Skansen; Sweden;60.0102498;15.7868385;Museum
Länsmuseet Gävleborg; Sweden;60.6737916;17.150237150002113;Monument or Site
Gävle; Sweden;60.6750132;17.1467019;Monument or Site
Skellefteå Museum; Sweden;64.7488934;20.9409238;Monument or Site
Skellefteå; Sweden;64.7520185;20.959339;Monument or Site
Holy Cross of Davao College Museum; Philippines;7.133993;125.690528;Museum
National Museum of Korea (14 locations); Rep. of Korea;7.29334945;80.6421412097081;Museum
Thalang National Museum; Thailand;7.9809271;98.3669399;Museum
Nakhon Si Thammarat Chaiya National Museum; Thailand;8.436241;99.964895;Museum
Jose Rizal Shrine Dapitan Park and museum; Philippines;8.6674439;123.41728;Museum

